City_ID,City,Lat,Lng,Max Temp,Humidity,Cloudiness,Wind Speed,Country,Date,date
0,ushuaia,-54.8,-68.3,-2.19,74,100,1.54,AR,1727750582,2024-10-01 02:43:02
1,adamstown,-25.066,-130.1015,19.36,67,100,5.36,PN,1727750594,2024-10-01 02:43:14
2,puerto natales,-51.7236,-72.4875,2.36,92,98,4.04,CL,1727750555,2024-10-01 02:42:35
3,riberalta,-10.9833,-66.1,24.14,72,93,1.37,BO,1727750596,2024-10-01 02:43:16
4,whitehorse,60.7161,-135.0538,5.43,61,75,0.0,CA,1727750587,2024-10-01 02:43:07
5,rongelap,11.1635,166.8941,28.52,77,100,5.79,MH,1727750599,2024-10-01 02:43:19
6,port-aux-francais,-49.35,70.2167,5.25,95,100,17.15,TF,1727750600,2024-10-01 02:43:20
7,ribeira grande,38.5167,-28.7,24.32,95,90,8.05,PT,1727750601,2024-10-01 02:43:21
8,huarmey,-10.0681,-78.1522,17.72,88,83,4.21,PE,1727750602,2024-10-01 02:43:22
9,port mathurin,-19.6833,63.4167,22.43,77,10,10.04,MU,1727750603,2024-10-01 02:43:23
10,mahina,-17.5065,-149.489,28.87,70,75,4.63,PF,1727750604,2024-10-01 02:43:24
11,grytviken,-54.2811,-36.5092,-3.94,67,16,5.69,GS,1727750605,2024-10-01 02:43:25
12,amahai,-3.3333,128.9167,27.96,77,100,2.3,ID,1727750606,2024-10-01 02:43:26
13,bredasdorp,-34.5322,20.0403,9.54,69,54,2.49,ZA,1727750607,2024-10-01 02:43:27
14,fredericton,45.9454,-66.6656,13.47,91,100,4.12,CA,1727750150,2024-10-01 02:35:50
15,tiksi,71.6872,128.8694,-4.4,89,99,1.69,RU,1727750609,2024-10-01 02:43:29
16,papatowai,-46.5619,169.4708,15.64,47,99,3.78,NZ,1727750610,2024-10-01 02:43:30
17,montepuez,-13.1256,38.9997,21.26,84,66,3.49,MZ,1727750611,2024-10-01 02:43:31
18,ulanhot,46.0833,122.0833,10.98,30,51,6.09,CN,1727750612,2024-10-01 02:43:32
19,ust'-barguzin,53.45,108.9833,6.34,76,100,5.96,RU,1727750613,2024-10-01 02:43:33
20,asekeyevo,53.5742,52.7972,10.71,45,33,1.46,RU,1727750614,2024-10-01 02:43:34
21,taurage,55.2522,22.2897,5.64,65,100,3.39,LT,1727750615,2024-10-01 02:43:35
22,uturoa,-16.7333,-151.4333,26.78,75,45,3.48,PF,1727750038,2024-10-01 02:33:58
23,kamaishi,39.2667,141.8833,24.22,66,0,3.27,JP,1727750617,2024-10-01 02:43:37
24,edinburgh of the seven seas,-37.0676,-12.3116,12.62,80,7,4.74,SH,1727750618,2024-10-01 02:43:38
25,quzhou,28.9594,118.8686,24.41,79,100,2.96,CN,1727750619,2024-10-01 02:43:39
26,mannarakkat,10.9833,76.4667,29.1,68,12,1.13,IN,1727750620,2024-10-01 02:43:40
27,lerwick,60.1545,-1.1494,10.51,88,15,3.4,GB,1727750621,2024-10-01 02:43:41
28,aasiaat,68.7098,-52.8699,2.7,82,93,1.99,GL,1727750622,2024-10-01 02:43:42
29,dolyna,48.9733,24.0094,4.73,96,100,1.8,UA,1727750623,2024-10-01 02:43:43
30,badger,64.8,-147.5333,12.95,29,40,4.63,US,1727750624,2024-10-01 02:43:44
31,albany,42.6001,-73.9662,17.47,72,100,1.56,US,1727750555,2024-10-01 02:42:35
32,sinabang,2.4803,96.3801,27.68,80,100,2.27,ID,1727750626,2024-10-01 02:43:46
33,olivet,47.8622,1.8991,12.77,93,100,5.14,FR,1727750444,2024-10-01 02:40:44
34,enewetak,11.3474,162.3373,29.04,75,18,4.73,MH,1727750630,2024-10-01 02:43:50
35,igarka,67.4667,86.5833,3.53,83,91,7.85,RU,1727750631,2024-10-01 02:43:51
36,alotau,-10.3069,150.4462,28.89,73,63,3.22,PG,1727750632,2024-10-01 02:43:52
37,mount pearl,47.5166,-52.7813,12.86,94,100,4.63,CA,1727750633,2024-10-01 02:43:53
38,thinadhoo,0.5333,72.9333,28.19,75,46,2.9,MV,1727750634,2024-10-01 02:43:54
39,port elizabeth,-33.918,25.5701,10.73,81,75,9.26,ZA,1727750635,2024-10-01 02:43:55
40,olonets,60.9847,32.9698,1.2,82,0,1.86,RU,1727750636,2024-10-01 02:43:56
41,fort irwin,35.2627,-116.6848,32.74,9,0,1.54,US,1727750637,2024-10-01 02:43:57
42,tweed heads,-28.1817,153.547,22.88,64,75,7.72,AU,1727750638,2024-10-01 02:43:58
43,east london,-33.0153,27.9116,12.58,55,17,10.18,ZA,1727750639,2024-10-01 02:43:59
44,margaret river,-33.95,115.0667,17.31,62,100,2.76,AU,1727750640,2024-10-01 02:44:00
45,bechar,31.6167,-2.2167,25.18,41,0,1.03,DZ,1727750641,2024-10-01 02:44:01
46,san patricio,28.017,-97.5169,24.97,57,0,4.01,US,1727750642,2024-10-01 02:44:02
47,kuqa,41.7278,82.9364,14.86,38,0,2.21,CN,1727750352,2024-10-01 02:39:12
48,bilibino,68.0546,166.4372,0.65,97,100,0.88,RU,1727750644,2024-10-01 02:44:04
49,changzhi,35.2089,111.7386,16.48,24,38,7.69,CN,1727750645,2024-10-01 02:44:05
50,olonkinbyen,70.9221,-8.7187,-1.39,64,100,5.03,SJ,1727750646,2024-10-01 02:44:06
51,pingliang,35.5392,106.6861,11.96,27,0,0.86,CN,1727750647,2024-10-01 02:44:07
52,sur,22.5667,59.5289,28.33,67,0,2.63,OM,1727750648,2024-10-01 02:44:08
53,waitangi,-43.9535,-176.5597,12.68,78,99,1.79,NZ,1727750649,2024-10-01 02:44:09
54,northam,51.0333,-4.2167,12.56,91,27,4.82,GB,1727750650,2024-10-01 02:44:10
55,invercargill,-46.4,168.35,13.34,77,100,1.79,NZ,1727750651,2024-10-01 02:44:11
56,dudinka,69.4058,86.1778,3.94,75,100,5.83,RU,1727750652,2024-10-01 02:44:12
57,hermanus,-34.4187,19.2345,7.11,63,95,1.9,ZA,1727750653,2024-10-01 02:44:13
58,labuan bajo,-8.4964,119.8877,29.76,68,5,3.0,ID,1727750654,2024-10-01 02:44:14
59,mount gambier,-37.8333,140.7667,15.98,57,41,3.72,AU,1727750655,2024-10-01 02:44:15
60,puerto ayora,-0.7393,-90.3518,20.31,96,95,1.34,EC,1727750483,2024-10-01 02:41:23
61,west island,-12.1568,96.8225,26.99,89,100,6.69,CC,1727750657,2024-10-01 02:44:17
62,matoury,4.8483,-52.3317,25.98,89,0,1.54,GF,1727750658,2024-10-01 02:44:18
63,antofagasta,-23.65,-70.4,15.6,80,65,3.34,CL,1727750567,2024-10-01 02:42:47
64,kyaikkami,16.08,97.5675,27.88,82,100,5.99,MM,1727750660,2024-10-01 02:44:20
65,ben mehidi,36.7697,7.9064,16.99,82,0,1.54,DZ,1727750661,2024-10-01 02:44:21
66,kalajoki,64.25,23.95,7.17,78,88,6.76,FI,1727750663,2024-10-01 02:44:23
67,turpan,42.9333,89.1667,18.95,13,0,1.32,CN,1727750664,2024-10-01 02:44:24
68,alice springs,-23.7,133.8833,20.75,21,100,5.66,AU,1727750665,2024-10-01 02:44:25
69,waddan,29.1614,16.139,20.06,67,0,1.71,LY,1727750666,2024-10-01 02:44:26
70,georgetown,5.4112,100.3354,29.96,78,20,1.54,MY,1727750667,2024-10-01 02:44:27
71,haiku-pauwela,20.9219,-156.3051,27.36,71,38,11.62,US,1727750668,2024-10-01 02:44:28
72,yellowknife,62.456,-114.3525,2.45,100,100,5.66,CA,1727750669,2024-10-01 02:44:29
73,walvis bay,-22.9575,14.5053,9.53,81,0,3.6,NA,1727750670,2024-10-01 02:44:30
74,narvik,68.4384,17.4272,7.37,78,48,5.36,NO,1727750614,2024-10-01 02:43:34
75,hamilton,39.1834,-84.5333,20.79,93,100,3.09,US,1727750209,2024-10-01 02:36:49
76,ilulissat,69.2167,-51.1,4.01,93,100,3.09,GL,1727750673,2024-10-01 02:44:33
77,vorgashor,67.5833,63.95,2.17,78,100,14.53,RU,1727750674,2024-10-01 02:44:34
78,kingston,17.997,-76.7936,28.53,79,20,4.12,JM,1727750539,2024-10-01 02:42:19
79,saipan,15.1355,145.701,32.39,70,40,5.66,MP,1727750676,2024-10-01 02:44:36
80,madara,11.7798,10.4479,26.09,67,37,3.35,NG,1727750677,2024-10-01 02:44:37
81,nabire,-3.3667,135.4833,29.93,69,93,2.43,ID,1727750678,2024-10-01 02:44:38
82,bremen,53.0752,8.8078,11.1,100,75,4.12,DE,1727750679,2024-10-01 02:44:39
83,las tablas,7.7667,-80.2833,23.99,99,100,2.28,PA,1727750680,2024-10-01 02:44:40
84,khovd,48.0056,91.6419,8.66,22,20,0.59,MN,1727750681,2024-10-01 02:44:41
85,wailua homesteads,22.0669,-159.378,27.44,78,100,5.14,US,1727750682,2024-10-01 02:44:42
86,kudahuvadhoo,2.6708,72.8944,28.44,74,100,3.99,MV,1727750683,2024-10-01 02:44:43
87,kodiak,57.79,-152.4072,9.73,66,0,6.69,US,1727750684,2024-10-01 02:44:44
88,quartu sant'elena,39.2419,9.1839,18.35,77,0,2.06,IT,1727750685,2024-10-01 02:44:45
89,lebu,-37.6167,-73.65,8.99,85,72,3.63,CL,1727750686,2024-10-01 02:44:46
90,qaqortoq,60.7167,-46.0333,3.9,96,100,1.1,GL,1727750687,2024-10-01 02:44:47
91,tvoroyri,61.5556,-6.8111,8.5,84,48,6.42,FO,1727750688,2024-10-01 02:44:48
92,college,64.8569,-147.8028,12.99,32,40,4.63,US,1727750689,2024-10-01 02:44:49
93,abra pampa,-22.7205,-65.697,11.47,8,0,2.92,AR,1727750690,2024-10-01 02:44:50
94,thompson,55.7435,-97.8558,5.09,93,100,9.77,CA,1727750533,2024-10-01 02:42:13
95,hilo,19.7297,-155.09,27.85,70,75,4.63,US,1727750430,2024-10-01 02:40:30
96,arenapolis,-14.4503,-56.8461,27.6,49,96,2.06,BR,1727750693,2024-10-01 02:44:53
97,fale old settlement,-9.3852,-171.2468,27.85,76,98,3.84,TK,1727750694,2024-10-01 02:44:54
98,tura,25.5198,90.2201,26.73,94,100,1.66,IN,1727750412,2024-10-01 02:40:12
99,murzuq,25.9155,13.9184,24.42,47,0,5.52,LY,1727750696,2024-10-01 02:44:56
100,benguela,-12.5763,13.4055,21.42,86,14,2.49,AO,1727750697,2024-10-01 02:44:57
101,plaza huincul,-38.926,-69.2086,8.97,10,85,2.24,AR,1727750698,2024-10-01 02:44:58
102,itoman,26.1247,127.6694,31.21,79,40,6.17,JP,1727750700,2024-10-01 02:45:00
103,newman,37.3138,-121.0208,25.03,47,0,0.89,US,1727750701,2024-10-01 02:45:01
104,sept-iles,50.2001,-66.3821,10.0,82,0,3.6,CA,1727750514,2024-10-01 02:41:54
105,blackmans bay,-43.0167,147.3167,16.07,30,6,6.59,AU,1727750703,2024-10-01 02:45:03
106,keflavik,64.0049,-22.5624,4.24,87,100,4.63,IS,1727750704,2024-10-01 02:45:04
107,olyokminsk,60.3736,120.4264,3.62,97,100,5.36,RU,1727750705,2024-10-01 02:45:05
108,djelfa,34.6728,3.263,21.03,55,0,3.04,DZ,1727750706,2024-10-01 02:45:06
109,sona,45.4388,10.8255,14.51,84,20,2.06,IT,1727750707,2024-10-01 02:45:07
110,jamestown,42.097,-79.2353,19.45,85,100,3.09,US,1727750556,2024-10-01 02:42:36
111,hondomachi-hondo,32.45,130.2,26.56,65,31,1.68,JP,1727750709,2024-10-01 02:45:09
112,mogadishu,2.0371,45.3438,25.47,80,97,4.11,SO,1727750710,2024-10-01 02:45:10
113,meulaboh,4.1363,96.1285,24.73,93,100,1.19,ID,1727750711,2024-10-01 02:45:11
114,atafu village,-8.5421,-172.5159,28.37,73,25,3.83,TK,1727750712,2024-10-01 02:45:12
115,al marj,32.488,20.8317,18.87,69,9,5.61,LY,1727750713,2024-10-01 02:45:13
116,obihiro,42.9172,143.2044,21.67,59,1,1.73,JP,1727750714,2024-10-01 02:45:14
117,cam ranh,11.9214,109.1591,33.98,55,0,2.06,VN,1727750715,2024-10-01 02:45:15
118,aconibe,1.2968,10.9369,19.75,98,100,1.38,GQ,1727750717,2024-10-01 02:45:17
119,fort bragg,35.139,-79.006,22.91,94,40,1.54,US,1727750718,2024-10-01 02:45:18
120,bear valley springs,35.1591,-118.6284,21.82,44,0,1.06,US,1727750720,2024-10-01 02:45:20
121,pahlgam,34.0333,75.3333,14.48,27,0,0.23,IN,1727750721,2024-10-01 02:45:21
122,trinidad,-14.8333,-64.9,29.84,48,74,3.52,BO,1727750722,2024-10-01 02:45:22
123,bamboo flat,11.7,92.7167,28.05,89,40,2.57,IN,1727750723,2024-10-01 02:45:23
124,tazovsky,67.4667,78.7,3.47,78,96,10.0,RU,1727750724,2024-10-01 02:45:24
125,quellon,-43.1167,-73.6167,2.7,74,14,3.37,CL,1727750726,2024-10-01 02:45:26
126,poronaysk,49.2167,143.1167,12.19,87,100,2.03,RU,1727750727,2024-10-01 02:45:27
127,keren,15.7778,38.4581,20.15,77,7,0.59,ER,1727750728,2024-10-01 02:45:28
128,kismayo,-0.3582,42.5454,24.95,86,72,3.78,SO,1727750729,2024-10-01 02:45:29
129,martapura,-3.4167,114.85,32.05,58,20,1.54,ID,1727750730,2024-10-01 02:45:30
130,nova sintra,14.8667,-24.7167,26.44,87,14,3.13,CV,1727750731,2024-10-01 02:45:31
131,nar'yan-mar,67.6713,53.087,4.46,71,100,12.56,RU,1727750732,2024-10-01 02:45:32
132,petropavlovsk-kamchatsky,53.0452,158.6483,10.33,62,75,1.0,RU,1727750733,2024-10-01 02:45:33
133,al ghayzah,16.2079,52.176,27.1,72,66,3.34,YE,1727750735,2024-10-01 02:45:35
134,muroto-misakicho,33.2833,134.15,25.46,70,66,3.7,JP,1727750736,2024-10-01 02:45:36
135,dunedin,-45.8742,170.5036,13.44,61,100,5.14,NZ,1727750669,2024-10-01 02:44:29
136,polyarnyy,69.1989,33.4478,2.42,79,80,7.55,RU,1727750738,2024-10-01 02:45:38
137,ameca,20.55,-104.0333,18.71,88,90,2.24,MX,1727750739,2024-10-01 02:45:39
138,port saint john's,-31.6229,29.5448,13.31,46,0,8.06,ZA,1727750740,2024-10-01 02:45:40
139,axim,4.8699,-2.2405,24.5,89,100,3.79,GH,1727750741,2024-10-01 02:45:41
140,lihue,21.9789,-159.3672,27.77,76,100,5.14,US,1727750742,2024-10-01 02:45:42
141,ormara,25.2088,64.6357,27.33,86,0,7.78,PK,1727750743,2024-10-01 02:45:43
142,tolanaro,-25.0319,46.9987,22.04,88,0,5.14,MG,1727750744,2024-10-01 02:45:44
143,conceicao da barra,-18.5933,-39.7322,22.78,77,1,2.48,BR,1727750745,2024-10-01 02:45:45
144,longyearbyen,78.2186,15.6401,-4.09,100,40,4.12,SJ,1727750746,2024-10-01 02:45:46
145,stanley,54.868,-1.6985,11.27,95,75,5.66,GB,1727750747,2024-10-01 02:45:47
146,parfino,57.9731,31.6481,4.65,73,100,3.54,RU,1727750748,2024-10-01 02:45:48
147,sitka,57.0531,-135.33,12.94,54,100,10.29,US,1727750749,2024-10-01 02:45:49
148,queenstown,-31.8976,26.8753,2.42,64,3,5.56,ZA,1727750750,2024-10-01 02:45:50
149,touros,-5.1989,-35.4608,24.32,74,6,7.19,BR,1727750751,2024-10-01 02:45:51
150,maddagiri,13.6606,77.2092,26.26,64,5,2.05,IN,1727750752,2024-10-01 02:45:52
151,villa gesell,-37.2639,-56.973,12.01,81,69,5.59,AR,1727750719,2024-10-01 02:45:19
152,san andres,12.5847,-81.7006,26.01,89,20,1.03,CO,1727750754,2024-10-01 02:45:54
153,shache,38.4167,77.2406,14.78,43,89,4.97,CN,1727750755,2024-10-01 02:45:55
154,kharp,66.8014,65.8081,3.16,76,100,13.05,RU,1727750756,2024-10-01 02:45:56
155,mumford,5.2618,-0.759,24.22,91,65,3.74,GH,1727750757,2024-10-01 02:45:57
156,carnarvon,-24.8667,113.6333,22.1,64,0,4.74,AU,1727750759,2024-10-01 02:45:59
157,bayanhongor,46.7167,100.1167,1.52,39,39,2.41,MN,1727750760,2024-10-01 02:46:00
158,hawaiian paradise park,19.5933,-154.9731,27.73,78,75,4.63,US,1727750761,2024-10-01 02:46:01
159,belle fourche,44.6714,-103.8522,10.05,29,65,3.05,US,1727750762,2024-10-01 02:46:02
160,klyuchi,52.2667,79.1667,15.47,42,8,3.01,RU,1727750763,2024-10-01 02:46:03
161,tobelo,1.7284,128.0095,29.13,70,100,2.14,ID,1727750764,2024-10-01 02:46:04
162,bangolo,7.0069,-7.475,21.65,100,100,0.76,CI,1727750765,2024-10-01 02:46:05
163,vila franca do campo,37.7167,-25.4333,24.23,95,53,4.73,PT,1727750766,2024-10-01 02:46:06
164,heavitree,50.7204,-3.4965,10.49,97,20,2.06,GB,1727750767,2024-10-01 02:46:07
165,westport,41.1415,-73.3579,17.08,83,99,2.84,US,1727750769,2024-10-01 02:46:09
166,iskateley,67.6803,53.1512,4.48,71,100,12.48,RU,1727750770,2024-10-01 02:46:10
167,ancud,-41.8697,-73.8203,3.63,71,53,3.17,CL,1727750771,2024-10-01 02:46:11
168,mar del plata,-38.0023,-57.5575,12.01,88,0,8.05,AR,1727750095,2024-10-01 02:34:55
169,mili,6.0815,171.735,28.31,74,100,3.6,MH,1727750773,2024-10-01 02:46:13
170,ishikawa,26.4233,127.8214,31.18,74,75,6.17,JP,1727750774,2024-10-01 02:46:14
171,jennings,38.7192,-90.2604,22.75,84,100,0.0,US,1727750775,2024-10-01 02:46:15
172,isafjordur,66.0755,-23.124,3.21,93,100,6.55,IS,1727750776,2024-10-01 02:46:16
173,mongo,12.1844,18.693,27.88,62,99,2.41,TD,1727750777,2024-10-01 02:46:17
174,santa cruz,-17.8,-63.1667,28.7,65,35,6.69,BO,1727750547,2024-10-01 02:42:27
175,midvagur,62.0511,-7.1939,7.46,93,100,4.12,FO,1727750779,2024-10-01 02:46:19
176,ankang,32.68,109.0172,16.65,54,100,0.72,CN,1727750780,2024-10-01 02:46:20
177,chernyshevskiy,63.0128,112.4714,3.15,97,100,4.14,RU,1727750781,2024-10-01 02:46:21
178,moramanga,-18.9333,48.2,15.3,92,75,0.77,MG,1727750782,2024-10-01 02:46:22
179,port-gentil,-0.7193,8.7815,24.8,84,100,5.63,GA,1727750783,2024-10-01 02:46:23
180,sabang,5.8933,95.3214,28.32,76,100,4.15,ID,1727750784,2024-10-01 02:46:24
181,hadibu,12.65,54.0333,25.23,83,12,2.43,YE,1727750785,2024-10-01 02:46:25
182,avarua,-21.2078,-159.775,23.03,68,75,2.57,CK,1727750786,2024-10-01 02:46:26
183,ataq,14.5377,46.8319,23.83,67,31,3.19,YE,1727750787,2024-10-01 02:46:27
184,nakhon thai,17.1006,100.8374,26.37,90,99,1.36,TH,1727750788,2024-10-01 02:46:28
185,"laikit, laikit ii (dimembe)",1.4792,124.9735,28.47,70,40,2.06,ID,1727750790,2024-10-01 02:46:30
186,bethel,41.3712,-73.414,15.64,86,0,0.45,US,1727750670,2024-10-01 02:44:30
187,talnakh,69.4865,88.3972,1.75,100,100,3.1,RU,1727750792,2024-10-01 02:46:32
188,prince rupert,54.3161,-130.3201,11.83,82,100,20.58,CA,1727750793,2024-10-01 02:46:33
189,port alfred,-33.5906,26.891,10.1,72,62,2.68,ZA,1727750794,2024-10-01 02:46:34
190,mariehamn,60.0973,19.9348,1.92,100,75,1.54,AX,1727750795,2024-10-01 02:46:35
191,praia da vitoria,38.7333,-27.0667,25.14,83,40,6.25,PT,1727750796,2024-10-01 02:46:36
192,birao,10.2849,22.7882,21.65,91,100,1.63,CF,1727750797,2024-10-01 02:46:37
193,flying fish cove,-10.4217,105.6791,27.82,83,100,6.17,CX,1727750798,2024-10-01 02:46:38
194,ola,59.5833,151.2833,4.96,45,100,1.0,RU,1727750799,2024-10-01 02:46:39
195,kenora,49.8167,-94.4337,10.54,66,100,5.66,CA,1727750800,2024-10-01 02:46:40
196,el granada,37.5027,-122.4694,23.99,56,75,9.26,US,1727750535,2024-10-01 02:42:15
197,oxapampa,-10.5775,-75.4017,14.05,98,100,1.38,PE,1727750802,2024-10-01 02:46:42
198,sao joao da barra,-21.6403,-41.0511,22.67,89,0,6.58,BR,1727750803,2024-10-01 02:46:43
199,isangel,-19.55,169.2667,27.06,78,75,3.09,VU,1727750804,2024-10-01 02:46:44
200,kzyltu,53.6364,72.3414,11.54,50,23,3.01,KZ,1727750805,2024-10-01 02:46:45
201,ubari,26.5921,12.7805,24.68,47,0,4.25,LY,1727750806,2024-10-01 02:46:46
202,chinde,26.8212,87.7095,26.9,80,65,1.5,NP,1727750807,2024-10-01 02:46:47
203,roma,43.2128,-75.4557,17.04,92,0,2.06,US,1727750808,2024-10-01 02:46:48
204,strazhitsa,43.2333,25.9667,12.89,57,95,5.52,BG,1727750809,2024-10-01 02:46:49
205,el calafate,-50.3408,-72.2768,1.2,75,21,3.67,AR,1727750534,2024-10-01 02:42:14
206,al ain city,24.1917,55.7606,27.79,65,0,6.69,AE,1727750811,2024-10-01 02:46:51
207,reggane,26.7158,0.1714,32.57,20,9,5.32,DZ,1727750812,2024-10-01 02:46:52
208,grahamstown,-33.3042,26.5328,6.92,64,12,7.86,ZA,1727750813,2024-10-01 02:46:53
209,forster,-32.1667,152.5167,20.77,66,2,4.36,AU,1727750814,2024-10-01 02:46:54
210,shyshaky,49.8817,34.0112,13.21,40,71,5.11,UA,1727750815,2024-10-01 02:46:55
211,miranda,3.2499,-76.2281,20.84,91,94,1.42,CO,1727750816,2024-10-01 02:46:56
212,guiuan,11.0333,125.7247,29.45,72,93,5.49,PH,1727750817,2024-10-01 02:46:57
213,carauari,-4.8828,-66.8958,23.5,93,97,0.27,BR,1727750818,2024-10-01 02:46:58
214,glace bay,46.1969,-59.957,14.53,91,75,9.26,CA,1727750819,2024-10-01 02:46:59
215,amper,9.35,9.7,22.48,90,61,1.94,NG,1727750821,2024-10-01 02:47:01
216,mitu,1.1983,-70.1733,23.34,81,99,0.24,CO,1727750822,2024-10-01 02:47:02
217,kilimatinde,-5.85,34.95,20.62,67,30,1.55,TZ,1727750823,2024-10-01 02:47:03
218,lingyuan,41.24,119.4011,9.33,51,47,5.96,CN,1727750824,2024-10-01 02:47:04
219,la passe,45.5549,-0.8967,15.36,91,100,1.33,FR,1727750825,2024-10-01 02:47:05
220,arraial do cabo,-22.9661,-42.0278,21.98,73,20,6.17,BR,1727750826,2024-10-01 02:47:06
221,kerikeri,-35.2268,173.9474,15.9,72,100,4.28,NZ,1727750753,2024-10-01 02:45:53
222,beibei,29.8256,106.4339,17.26,87,100,1.25,CN,1727750828,2024-10-01 02:47:08
223,ndioum,16.5129,-14.6471,30.57,56,100,6.22,SN,1727750829,2024-10-01 02:47:09
224,miltenberg,49.7039,9.2644,14.11,90,98,1.79,DE,1727750830,2024-10-01 02:47:10
225,pochaiv,50.0051,25.5118,5.51,96,100,4.28,UA,1727750831,2024-10-01 02:47:11
226,skovorodino,53.9833,123.9167,8.08,37,34,2.33,RU,1727750832,2024-10-01 02:47:12
227,queimados,-22.7161,-43.5553,22.77,73,0,1.94,BR,1727750403,2024-10-01 02:40:03
228,port hedland,-20.3167,118.5667,33.03,31,2,7.2,AU,1727750834,2024-10-01 02:47:14
229,oum hadjer,13.2954,19.6966,28.56,59,99,3.74,TD,1727750835,2024-10-01 02:47:15
230,al jawf,29.5,38.75,19.22,58,0,3.5,SA,1727750836,2024-10-01 02:47:16
231,pekalongan,-6.8886,109.6753,31.04,61,100,1.73,ID,1727750837,2024-10-01 02:47:17
232,port lincoln,-34.7333,135.8667,16.99,65,10,4.92,AU,1727750838,2024-10-01 02:47:18
233,kalymnos,36.95,26.9833,19.74,68,20,4.12,GR,1727750840,2024-10-01 02:47:20
234,oyama,36.3,139.8,22.84,79,100,3.91,JP,1727750841,2024-10-01 02:47:21
235,thal,35.4791,72.2439,14.51,45,0,1.22,PK,1727750842,2024-10-01 02:47:22
236,katsuura,35.1333,140.3,25.18,94,100,7.13,JP,1727750805,2024-10-01 02:46:45
237,arkhangel'sk,64.5401,40.5433,0.06,100,20,2.0,RU,1727750844,2024-10-01 02:47:24
238,moyale,3.5167,39.0584,20.35,70,100,1.96,KE,1727750845,2024-10-01 02:47:25
239,punta arenas,-53.15,-70.9167,2.06,93,100,2.06,CL,1727750813,2024-10-01 02:46:53
240,coronel suarez,-37.4547,-61.9334,9.65,61,22,2.75,AR,1727750847,2024-10-01 02:47:27
241,ndele,8.4109,20.6473,20.65,97,100,0.69,CF,1727750848,2024-10-01 02:47:28
242,cedeira,43.6797,-8.0209,18.79,90,100,9.25,ES,1727750849,2024-10-01 02:47:29
243,suva,-18.1416,178.4415,27.71,74,75,6.17,FJ,1727750850,2024-10-01 02:47:30
244,kiama,-34.6833,150.8667,19.65,61,0,4.62,AU,1727750851,2024-10-01 02:47:31
245,mount isa,-20.7333,139.5,33.87,18,0,4.63,AU,1727750852,2024-10-01 02:47:32
246,kruisfontein,-34.0033,24.7314,9.25,81,38,7.69,ZA,1727750854,2024-10-01 02:47:34
247,gangneung,37.7556,128.8961,24.39,66,92,3.62,KR,1727750855,2024-10-01 02:47:35
248,saint-malo,48.5,-1.8333,10.86,90,100,3.19,FR,1727750856,2024-10-01 02:47:36
249,manacapuru,-3.2997,-60.6206,25.1,87,75,1.35,BR,1727750857,2024-10-01 02:47:37
250,udachny,66.4167,112.4,0.57,99,100,2.51,RU,1727750858,2024-10-01 02:47:38
251,pisco,-13.7,-76.2167,17.03,88,0,5.66,PE,1727750859,2024-10-01 02:47:39
252,isla del bosque,22.7333,-105.85,27.79,82,100,2.64,MX,1727750860,2024-10-01 02:47:40
253,ortakoy,38.7373,34.0387,10.46,77,79,1.98,TR,1727750861,2024-10-01 02:47:41
254,crane,31.3974,-102.3501,25.87,23,0,4.49,US,1727750862,2024-10-01 02:47:42
255,lady frere,-31.7031,27.2329,2.59,64,1,3.64,ZA,1727750863,2024-10-01 02:47:43
256,hammerfest,70.6634,23.6821,7.25,65,75,4.12,NO,1727750864,2024-10-01 02:47:44
257,hovd,48.0056,91.6419,8.66,22,20,0.59,MN,1727750865,2024-10-01 02:47:45
258,lompoc,34.6391,-120.4579,21.5,86,0,1.54,US,1727750866,2024-10-01 02:47:46
259,pokhara,28.2333,83.9833,23.66,82,28,1.29,NP,1727750764,2024-10-01 02:46:04
260,guacui,-20.7756,-41.6794,17.83,95,23,1.8,BR,1727750868,2024-10-01 02:47:48
261,bardai,11.65,7.2333,22.46,84,45,3.85,NG,1727750869,2024-10-01 02:47:49
262,afaahiti,-17.75,-149.2833,25.31,79,43,3.95,PF,1727750870,2024-10-01 02:47:50
263,netrakona,24.8833,90.7167,28.6,82,100,3.54,BD,1727750871,2024-10-01 02:47:51
264,berdigestyakh,62.0989,126.6992,1.59,100,100,0.41,RU,1727750872,2024-10-01 02:47:52
265,sint michiel liber,12.15,-68.9833,28.9,84,20,3.6,CW,1727750873,2024-10-01 02:47:53
266,manta,-0.95,-80.7333,21.88,83,40,4.12,EC,1727750796,2024-10-01 02:46:36
267,vadso,70.0744,29.7487,4.09,75,20,6.17,NO,1727750875,2024-10-01 02:47:55
268,sumbe,-11.2061,13.8437,21.8,89,32,1.15,AO,1727750876,2024-10-01 02:47:56
269,lugovoye,42.9094,72.7178,16.97,33,68,0.12,KZ,1727750877,2024-10-01 02:47:57
270,ndikinimeki,4.7667,10.8333,19.77,99,100,1.42,CM,1727750878,2024-10-01 02:47:58
271,saudarkrokur,65.7461,-19.6394,2.02,75,100,6.75,IS,1727750879,2024-10-01 02:47:59
272,labrador city,52.9463,-66.9114,5.66,79,0,4.92,CA,1727750712,2024-10-01 02:45:12
273,howard springs,-12.497,131.047,33.95,56,39,2.89,AU,1727750881,2024-10-01 02:48:01
274,iqaluit,63.7506,-68.5145,4.85,75,40,3.6,CA,1727750882,2024-10-01 02:48:02
275,claveria,18.6074,121.0832,25.86,77,100,4.55,PH,1727750883,2024-10-01 02:48:03
276,singaparna,-7.3515,108.111,27.99,70,68,1.95,ID,1727750884,2024-10-01 02:48:04
277,ochakiv,46.6128,31.5498,17.4,52,100,8.34,UA,1727750885,2024-10-01 02:48:05
278,mezhdurechenskiy,59.6,65.9333,9.12,79,68,3.76,RU,1727750886,2024-10-01 02:48:06
279,isiro,2.7739,27.616,18.66,99,99,0.88,CD,1727750887,2024-10-01 02:48:07
280,hotan,37.0997,79.9269,14.33,45,50,0.39,CN,1727750889,2024-10-01 02:48:09
281,suya,9.4667,3.1833,21.6,98,95,1.79,NG,1727750890,2024-10-01 02:48:10
282,geraldton,-28.7667,114.6,26.23,34,0,5.66,AU,1727750891,2024-10-01 02:48:11
283,acaponeta,22.4964,-105.3594,25.14,95,99,0.27,MX,1727750892,2024-10-01 02:48:12
284,tual,-5.6667,132.75,27.16,79,98,6.98,ID,1727750893,2024-10-01 02:48:13
285,hithadhoo,-0.6,73.0833,28.29,75,21,3.51,MV,1727750894,2024-10-01 02:48:14
286,tazacorte,28.629,-17.9293,20.54,68,0,4.63,ES,1727750895,2024-10-01 02:48:15
287,manakara,-22.1333,48.0167,21.64,90,27,4.65,MG,1727750896,2024-10-01 02:48:16
288,saldanha,-33.0117,17.9442,3.03,66,7,2.64,ZA,1727750897,2024-10-01 02:48:17
289,kiunga,-6.1219,141.2906,32.08,53,96,1.24,PG,1727750898,2024-10-01 02:48:18
290,kavaratti,10.5669,72.642,28.38,77,100,5.07,IN,1727750899,2024-10-01 02:48:19
291,abu dhabi,24.4667,54.3667,32.75,54,0,1.54,AE,1727750900,2024-10-01 02:48:20
292,iwanai,42.9744,140.5089,22.18,60,55,3.89,JP,1727750901,2024-10-01 02:48:21
293,dalbandin,28.8947,64.4101,26.26,22,6,3.62,PK,1727750650,2024-10-01 02:44:10
294,pinos,22.3,-101.5667,11.22,64,11,5.53,MX,1727750903,2024-10-01 02:48:23
295,zhigalovo,54.8097,105.1578,3.97,95,100,2.62,RU,1727750904,2024-10-01 02:48:24
296,codrington,-38.2667,141.9667,14.47,68,0,6.4,AU,1727750905,2024-10-01 02:48:25
297,inari,68.906,27.0288,4.56,75,100,7.15,FI,1727750906,2024-10-01 02:48:26
298,zhaotong,27.3167,103.7167,9.11,82,100,2.39,CN,1727750907,2024-10-01 02:48:27
299,wau,7.7029,27.9953,21.39,97,94,1.44,SS,1727750908,2024-10-01 02:48:28
300,utrik,11.2278,169.8474,27.98,77,100,5.77,MH,1727750909,2024-10-01 02:48:29
301,arteche,12.2645,125.4048,31.83,61,99,4.01,PH,1727750910,2024-10-01 02:48:30
302,usinsk,65.9939,57.5281,4.34,69,100,12.4,RU,1727750911,2024-10-01 02:48:31
303,tucuma,-0.1833,-50.05,26.45,77,41,3.82,BR,1727750912,2024-10-01 02:48:32
304,dolores,-36.3132,-57.6792,13.07,63,96,4.38,AR,1727750913,2024-10-01 02:48:33
305,kalmunai,7.4167,81.8167,29.3,72,40,5.36,LK,1727750914,2024-10-01 02:48:34
306,bellegarde-sur-valserine,46.1079,5.8242,16.61,90,100,0.4,FR,1727750915,2024-10-01 02:48:35
307,villa de soto,-30.8552,-64.9995,24.07,23,1,6.35,AR,1727750893,2024-10-01 02:48:13
308,palapye,-22.546,27.1251,13.17,11,0,6.54,BW,1727750917,2024-10-01 02:48:37
309,shingu,33.7333,135.9833,28.88,53,96,2.72,JP,1727750820,2024-10-01 02:47:00
310,sukhobezvodnoye,57.0491,44.8891,6.29,80,9,3.92,RU,1727750919,2024-10-01 02:48:39
311,fernie,49.5,-115.0687,5.97,47,100,2.42,CA,1727750921,2024-10-01 02:48:41
312,kuching,1.55,110.3333,31.68,73,20,1.03,MY,1727750648,2024-10-01 02:44:08
313,broken hill,-31.95,141.4333,20.23,34,0,5.63,AU,1727750923,2024-10-01 02:48:43
314,el rama,12.1596,-84.2195,23.04,98,100,1.52,NI,1727750924,2024-10-01 02:48:44
315,meybod,32.2501,54.0166,19.49,28,0,1.82,IR,1727750925,2024-10-01 02:48:45
316,howrah,22.5892,88.3103,32.0,79,40,3.6,IN,1727750926,2024-10-01 02:48:46
317,valparaiso,-33.0393,-71.6273,11.8,82,75,1.54,CL,1727750927,2024-10-01 02:48:47
318,sao gabriel da cachoeira,-0.1303,-67.0892,23.74,85,99,0.57,BR,1727750928,2024-10-01 02:48:48
319,nova vicosa,-17.8919,-39.3719,22.51,78,0,3.32,BR,1727750929,2024-10-01 02:48:49
320,lamarque,-39.423,-65.7021,11.1,64,100,5.46,AR,1727750930,2024-10-01 02:48:50
321,yorkton,51.2167,-102.4677,7.91,49,0,5.66,CA,1727750931,2024-10-01 02:48:51
322,karratha,-20.7377,116.8463,30.73,41,0,6.66,AU,1727750932,2024-10-01 02:48:52
323,mbaiki,3.8678,17.9892,21.08,98,100,0.41,CF,1727750933,2024-10-01 02:48:53
324,naze,28.3667,129.4833,27.51,67,99,1.1,JP,1727750934,2024-10-01 02:48:54
325,lae,-6.7221,146.9847,27.62,66,80,4.27,PG,1727750935,2024-10-01 02:48:55
326,ponnani,10.767,75.9252,27.93,78,38,1.88,IN,1727750936,2024-10-01 02:48:56
327,kapuskasing,49.4169,-82.4331,14.05,67,20,5.14,CA,1727750937,2024-10-01 02:48:57
328,cidreira,-30.1811,-50.2056,19.88,86,68,4.1,BR,1727750938,2024-10-01 02:48:58
329,mejit,10.2753,170.8646,27.98,77,98,5.51,MH,1727750939,2024-10-01 02:48:59
330,hirara,24.8,125.2833,31.92,84,75,9.26,JP,1727750940,2024-10-01 02:49:00
331,masterton,-40.9597,175.6575,17.46,52,24,3.03,NZ,1727750925,2024-10-01 02:48:45
332,sibolga,1.7427,98.7792,28.81,73,57,1.46,ID,1727750886,2024-10-01 02:48:06
333,al 'aziziyah,32.9058,45.0616,27.19,24,0,5.68,IQ,1727750943,2024-10-01 02:49:03
334,ilhabela,-23.7781,-45.3581,20.99,92,10,2.57,BR,1727750944,2024-10-01 02:49:04
335,bryne,58.7354,5.6477,11.81,73,75,4.63,NO,1727750945,2024-10-01 02:49:05
336,st. john's,47.5649,-52.7093,13.32,95,100,6.71,CA,1727750790,2024-10-01 02:46:30
337,anadyr,64.75,177.4833,7.28,93,40,7.0,RU,1727750653,2024-10-01 02:44:13
338,murun-kuren,49.6342,100.1625,5.82,50,88,7.2,MN,1727750949,2024-10-01 02:49:09
339,krasnovishersk,60.4078,57.082,3.71,94,24,2.41,RU,1727750950,2024-10-01 02:49:10
340,kaset sombun,16.2805,101.9542,29.51,72,100,1.38,TH,1727750951,2024-10-01 02:49:11
341,fujin,47.26,132.0322,11.52,37,100,2.61,CN,1727750811,2024-10-01 02:46:51
342,palmital,-22.7889,-50.2175,25.06,36,0,3.09,BR,1727750953,2024-10-01 02:49:13
343,inhambane,-23.865,35.3833,21.54,84,88,5.73,MZ,1727750954,2024-10-01 02:49:14
344,new norfolk,-42.7826,147.0587,16.51,31,4,5.15,AU,1727750955,2024-10-01 02:49:15
345,okha,53.5739,142.9478,7.07,71,100,6.62,RU,1727750845,2024-10-01 02:47:25
346,loango,-4.6719,11.8312,24.81,94,100,3.6,CG,1727750957,2024-10-01 02:49:17
347,spassk-dal'niy,44.5978,132.8211,6.82,94,100,3.39,RU,1727750958,2024-10-01 02:49:18
348,champerico,14.3,-91.9167,25.98,86,100,1.84,GT,1727750959,2024-10-01 02:49:19
349,waiuku,-37.25,174.75,16.81,58,100,4.1,NZ,1727750960,2024-10-01 02:49:20
350,brookings,44.3114,-96.7984,14.0,50,0,5.66,US,1727750872,2024-10-01 02:47:52
351,sadjoavato,-12.6334,49.349,21.1,85,74,4.39,MG,1727750962,2024-10-01 02:49:22
352,enriquillo,17.9,-71.2333,25.45,81,5,2.63,DO,1727750963,2024-10-01 02:49:23
353,cabedelo,-6.9811,-34.8339,23.37,75,44,5.34,BR,1727750964,2024-10-01 02:49:24
354,palikir - national government center,6.9248,158.1611,31.47,79,100,4.63,FM,1727750965,2024-10-01 02:49:25
355,terbuny,52.1389,38.2789,11.65,39,0,5.14,RU,1727750966,2024-10-01 02:49:26
356,nizhnyaya tavda,57.6731,66.1725,10.52,72,90,3.52,RU,1727750967,2024-10-01 02:49:27
357,lima,-12.0432,-77.0282,17.72,83,75,6.17,PE,1727750687,2024-10-01 02:44:47
358,inirida,3.8653,-67.9239,24.05,89,86,1.57,CO,1727750969,2024-10-01 02:49:29
359,zakynthos,37.7914,20.8953,18.62,63,20,3.09,GR,1727750970,2024-10-01 02:49:30
360,lucapa,-8.4192,20.7447,20.48,78,64,0.4,AO,1727750971,2024-10-01 02:49:31
361,shahritus,37.2637,68.1385,18.86,48,78,1.14,TJ,1727750972,2024-10-01 02:49:32
362,buka,40.8108,69.1986,17.16,40,1,0.78,UZ,1727750973,2024-10-01 02:49:33
363,xicotencatl,23.0167,-98.8833,24.16,79,6,2.33,MX,1727750974,2024-10-01 02:49:34
364,lucea,18.451,-78.1736,28.92,76,59,0.9,JM,1727750976,2024-10-01 02:49:36
365,araguaina,-7.1911,-48.2072,25.38,60,100,0.94,BR,1727750977,2024-10-01 02:49:37
366,bonthe,7.5264,-12.505,24.24,92,100,3.61,SL,1727750978,2024-10-01 02:49:38
367,remire-montjoly,4.9167,-52.2667,26.02,89,0,1.54,GF,1727750979,2024-10-01 02:49:39
368,aripuana,-9.1667,-60.6333,22.86,99,100,0.76,BR,1727750980,2024-10-01 02:49:40
369,longonjo,-12.9067,15.2533,17.61,79,57,0.97,AO,1727750981,2024-10-01 02:49:41
370,chateau-thierry,49.05,3.4,11.81,87,100,5.52,FR,1727750982,2024-10-01 02:49:42
371,kavieng,-2.5744,150.7967,29.96,71,53,7.23,PG,1727750983,2024-10-01 02:49:43
372,pemangkat,1.1667,108.9667,25.87,84,100,2.2,ID,1727750884,2024-10-01 02:48:04
373,beitbridge,-22.2167,30.0,17.46,84,1,3.0,ZW,1727750985,2024-10-01 02:49:45
374,taulaga,-11.0553,-171.0883,27.24,74,93,1.71,AS,1727750986,2024-10-01 02:49:46
375,tshela,-4.9833,12.9333,23.01,90,91,1.19,CD,1727750987,2024-10-01 02:49:47
376,ceuta,35.8903,-5.3075,20.05,92,44,3.28,ES,1727750988,2024-10-01 02:49:48
377,monrovia,6.3005,-10.7969,23.44,97,100,0.68,LR,1727750990,2024-10-01 02:49:50
378,colchani,-20.3,-66.9333,8.12,21,53,3.05,BO,1727750991,2024-10-01 02:49:51
379,kill devil hills,36.0307,-75.676,23.32,92,100,3.6,US,1727750992,2024-10-01 02:49:52
380,padangsidempuan,1.3667,99.2667,26.98,83,78,0.22,ID,1727750993,2024-10-01 02:49:53
381,ust-nera,64.5667,143.2,-0.7,69,89,1.26,RU,1727750994,2024-10-01 02:49:54
382,harnosand,62.6323,17.9379,0.0,85,65,6.59,SE,1727750995,2024-10-01 02:49:55
383,tumaco,1.7986,-78.8156,24.61,84,100,2.2,CO,1727750996,2024-10-01 02:49:56
384,al hazm,16.1641,44.7769,26.72,35,64,0.11,YE,1727750997,2024-10-01 02:49:57
385,merrifield,38.8743,-77.2269,18.92,89,99,0.45,US,1727750998,2024-10-01 02:49:58
386,bandon,51.7469,-8.7425,9.77,94,1,3.04,IE,1727750999,2024-10-01 02:49:59
387,rawson,-43.3002,-65.1023,3.16,87,20,1.54,AR,1727751000,2024-10-01 02:50:00
388,meads,38.4126,-82.7091,20.24,92,75,0.0,US,1727751001,2024-10-01 02:50:01
389,severo-yeniseyskiy,60.3725,93.0408,7.16,95,100,6.78,RU,1727751002,2024-10-01 02:50:02
390,beni mellal,32.3373,-6.3498,27.23,38,75,2.3,MA,1727751003,2024-10-01 02:50:03
391,chadron,42.8294,-102.9999,9.82,40,0,0.0,US,1727751004,2024-10-01 02:50:04
392,bel ombre,-4.6167,55.4167,26.91,74,40,6.17,SC,1727751005,2024-10-01 02:50:05
393,suratgarh,29.3167,73.9,34.28,30,0,3.36,IN,1727751006,2024-10-01 02:50:06
394,callao,-12.0667,-77.15,18.73,82,75,6.17,PE,1727750583,2024-10-01 02:43:03
395,guerrero negro,27.9769,-114.0611,19.72,87,56,4.81,MX,1727751009,2024-10-01 02:50:09
396,hobyo,5.3505,48.5268,24.6,87,52,3.71,SO,1727751010,2024-10-01 02:50:10
397,heroica caborca,30.7167,-112.15,30.86,51,1,6.35,MX,1727751011,2024-10-01 02:50:11
398,kailua-kona,19.6406,-155.9956,27.38,82,2,1.34,US,1727751012,2024-10-01 02:50:12
399,port macquarie,-31.4333,152.9167,21.71,52,0,2.24,AU,1727751014,2024-10-01 02:50:14
400,hasaki,35.7333,140.8333,24.06,94,100,7.32,JP,1727751015,2024-10-01 02:50:15
401,yeniseysk,58.4497,92.1703,10.48,93,100,5.98,RU,1727750912,2024-10-01 02:48:32
402,nago,26.5881,127.9761,28.52,80,74,3.61,JP,1727751017,2024-10-01 02:50:17
403,margate,51.3813,1.3862,12.15,81,100,0.89,GB,1727750923,2024-10-01 02:48:43
404,kristiansund,63.1115,7.732,10.63,93,100,3.6,NO,1727751019,2024-10-01 02:50:19
405,weno,7.4515,151.8468,32.97,66,40,2.57,FM,1727751020,2024-10-01 02:50:20
406,saint-philippe,-21.3585,55.7679,21.53,79,19,4.83,RE,1727751021,2024-10-01 02:50:21
407,high rock,26.6208,-78.2833,28.7,72,99,4.17,BS,1727751022,2024-10-01 02:50:22
408,constantia,44.1833,28.65,8.38,93,100,14.41,RO,1727750984,2024-10-01 02:49:44
409,isfana,39.8386,69.5306,15.34,47,1,0.29,KG,1727751024,2024-10-01 02:50:24
410,serdar,38.9764,56.2757,16.04,18,36,2.32,TM,1727751025,2024-10-01 02:50:25
411,belmonte,-15.8631,-38.8828,21.85,80,4,2.8,BR,1727751026,2024-10-01 02:50:26
412,lodwar,3.1191,35.5973,27.64,53,63,2.0,KE,1727750802,2024-10-01 02:46:42
413,vernon,50.2581,-119.2691,12.74,49,100,2.57,CA,1727751028,2024-10-01 02:50:28
414,bucak,37.4592,30.595,10.17,74,0,3.41,TR,1727751029,2024-10-01 02:50:29
415,peace river,56.2501,-117.286,9.17,42,100,5.66,CA,1727750809,2024-10-01 02:46:49
416,port blair,11.6667,92.75,28.02,89,40,2.57,IN,1727751032,2024-10-01 02:50:32
417,bojano,41.4857,14.4729,9.68,82,0,0.42,IT,1727751033,2024-10-01 02:50:33
418,puerto madero,14.7208,-92.4215,25.02,94,100,4.59,MX,1727751034,2024-10-01 02:50:34
419,labytnangi,66.6572,66.4183,4.24,66,100,13.52,RU,1727751035,2024-10-01 02:50:35
420,acarau,-2.8856,-40.12,25.1,82,15,8.18,BR,1727751036,2024-10-01 02:50:36
421,neelankarai,12.9455,80.2575,30.6,84,40,2.06,IN,1727751038,2024-10-01 02:50:38
422,polovinnoye,54.7914,65.9864,10.77,62,29,2.84,RU,1727751039,2024-10-01 02:50:39
423,malango,-2.9627,119.9001,28.75,50,83,2.38,ID,1727751040,2024-10-01 02:50:40
424,abepura,-2.6333,140.5833,32.45,55,20,2.57,ID,1727751041,2024-10-01 02:50:41
425,byron bay,-28.65,153.6167,20.91,54,60,6.48,AU,1727751042,2024-10-01 02:50:42
426,taltal,-25.4,-70.4833,15.26,79,24,1.41,CL,1727751043,2024-10-01 02:50:43
427,talakan,50.3167,130.3667,9.67,46,5,2.9,RU,1727751044,2024-10-01 02:50:44
428,constitucion,-35.3333,-72.4167,11.39,97,99,2.07,CL,1727751045,2024-10-01 02:50:45
429,chonchi,-42.6128,-73.8092,2.29,86,24,1.23,CL,1727751046,2024-10-01 02:50:46
430,bereket,39.2446,55.5154,16.07,19,5,3.62,TM,1727751047,2024-10-01 02:50:47
431,le mars,42.7942,-96.1656,16.91,29,0,3.6,US,1727750970,2024-10-01 02:49:30
432,punta cana,18.5818,-68.4043,27.87,78,20,3.09,DO,1727750884,2024-10-01 02:48:04
433,zav'yalovo,56.7847,53.3776,8.0,85,23,2.91,RU,1727751051,2024-10-01 02:50:51
434,bodaybo,57.8506,114.1933,4.88,91,100,3.46,RU,1727751052,2024-10-01 02:50:52
435,al mindak,20.1588,41.2834,20.23,54,35,1.24,SA,1727751053,2024-10-01 02:50:53
436,aquiraz,-3.9014,-38.3911,26.05,80,22,7.42,BR,1727751054,2024-10-01 02:50:54
437,onguday,50.75,86.15,7.82,57,100,1.25,RU,1727751055,2024-10-01 02:50:55
438,chaykovskiy,56.7686,54.1148,7.67,82,33,2.07,RU,1727751056,2024-10-01 02:50:56
439,nchelenge,-9.3451,28.734,23.47,65,64,2.53,ZM,1727751058,2024-10-01 02:50:58
440,trevelin,-43.0858,-71.4639,-2.89,90,15,2.4,AR,1727751059,2024-10-01 02:50:59
441,gjirokaster,40.0758,20.1389,10.41,83,20,3.35,AL,1727751060,2024-10-01 02:51:00
442,rio grande,-32.035,-52.0986,19.19,92,100,2.7,BR,1727751016,2024-10-01 02:50:16
443,tabuk,17.4189,121.4443,26.34,77,100,1.03,PH,1727750656,2024-10-01 02:44:16
444,thunder bay,48.4001,-89.3168,21.99,64,100,11.32,CA,1727751063,2024-10-01 02:51:03
445,akureyri,65.6835,-18.0878,-0.04,93,100,2.57,IS,1727751064,2024-10-01 02:51:04
446,ardakan,32.31,54.0175,19.68,28,0,2.18,IR,1727751065,2024-10-01 02:51:05
447,happy valley-goose bay,53.3168,-60.3315,5.17,87,20,3.09,CA,1727751066,2024-10-01 02:51:06
448,evanston,42.0411,-87.6901,20.61,89,0,0.0,US,1727751067,2024-10-01 02:51:07
449,colonia,50.9333,6.95,14.36,85,75,3.09,DE,1727750932,2024-10-01 02:48:52
450,tomatlan,19.9333,-105.25,24.78,96,100,0.61,MX,1727751069,2024-10-01 02:51:09
451,chumphon,10.3333,98.8333,29.21,68,100,3.24,TH,1727751070,2024-10-01 02:51:10
452,emerald,-23.5333,148.1667,31.3,28,0,3.16,AU,1727751071,2024-10-01 02:51:11
453,nemuro,43.3236,145.575,18.36,81,16,7.5,JP,1727751072,2024-10-01 02:51:12
454,ta`u,-14.2336,-169.5144,24.29,90,100,4.4,AS,1727751073,2024-10-01 02:51:13
455,samitah,16.596,42.9444,30.88,63,70,1.69,SA,1727751074,2024-10-01 02:51:14
456,pamandzi,-12.7967,45.2794,26.88,78,75,6.69,YT,1727751075,2024-10-01 02:51:15
457,punta cardon,11.6581,-70.215,28.79,73,97,2.4,VE,1727751076,2024-10-01 02:51:16
458,mandal,25.45,74.5667,28.63,61,2,5.95,IN,1727751077,2024-10-01 02:51:17
459,eyl,7.9803,49.8164,24.52,87,10,2.42,SO,1727751078,2024-10-01 02:51:18
460,kyzyl-mazhalyk,51.1333,90.6,9.23,45,96,0.8,RU,1727751079,2024-10-01 02:51:19
461,bengkulu,-3.8004,102.2655,29.35,67,40,1.88,ID,1727750953,2024-10-01 02:49:13
462,sisimiut,66.9395,-53.6735,3.76,89,68,2.48,GL,1727751082,2024-10-01 02:51:22
463,fort st. john,56.2499,-120.8529,7.94,49,100,9.26,CA,1727751083,2024-10-01 02:51:23
464,aromashevo,56.8602,68.6375,10.26,73,29,3.39,RU,1727751085,2024-10-01 02:51:25
465,kamakhyanagar,20.9333,85.55,29.83,76,79,3.22,IN,1727751086,2024-10-01 02:51:26
466,purnia,25.7833,87.4667,28.87,78,100,3.89,IN,1727751087,2024-10-01 02:51:27
467,thames,-37.1333,175.5333,17.29,59,100,3.15,NZ,1727751088,2024-10-01 02:51:28
468,ceres,37.5949,-120.9577,26.78,51,0,3.22,US,1727751090,2024-10-01 02:51:30
469,qusmuryn,52.4503,64.6311,12.22,41,22,2.98,KZ,1727751091,2024-10-01 02:51:31
470,nueva gerona,21.8833,-82.8,28.28,81,100,3.86,CU,1727751093,2024-10-01 02:51:33
471,revelstoke,50.9832,-118.2023,10.01,76,100,1.03,CA,1727751094,2024-10-01 02:51:34
472,kalevala,65.2,31.1667,2.45,78,24,4.77,RU,1727751095,2024-10-01 02:51:35
473,dzhalagash,45.0833,64.6667,15.15,25,100,3.76,KZ,1727751096,2024-10-01 02:51:36
474,boonville,38.9736,-92.7432,21.1,88,40,0.0,US,1727751097,2024-10-01 02:51:37
475,barra de santo antonio,-9.4047,-35.5072,23.07,80,74,3.3,BR,1727751098,2024-10-01 02:51:38
476,bozoum,6.3193,16.3799,20.3,95,100,0.89,CF,1727751100,2024-10-01 02:51:40
477,vila do maio,15.1333,-23.2167,26.36,89,48,2.95,CV,1727751101,2024-10-01 02:51:41
478,malhargarh,24.2833,74.9833,26.22,80,0,5.07,IN,1727751102,2024-10-01 02:51:42
479,vila velha,-20.3297,-40.2925,21.64,97,40,1.03,BR,1727750930,2024-10-01 02:48:50
480,pacific grove,36.6177,-121.9166,19.06,85,0,2.24,US,1727751104,2024-10-01 02:51:44
481,port loko,8.7667,-12.7833,22.9,98,98,0.97,SL,1727751105,2024-10-01 02:51:45
482,aras-asan,8.8908,126.3033,29.73,66,69,2.04,PH,1727751106,2024-10-01 02:51:46
483,awjilah,29.1081,21.2869,20.23,58,0,3.87,LY,1727751107,2024-10-01 02:51:47
484,susuman,62.7833,148.1667,-0.73,48,89,0.97,RU,1727751108,2024-10-01 02:51:48
485,weyburn,49.6668,-103.8511,9.12,43,4,4.63,CA,1727751109,2024-10-01 02:51:49
486,santa helena,-2.2311,-45.3,22.5,94,9,1.34,BR,1727751111,2024-10-01 02:51:51
487,perevolotskiy,51.8763,54.1938,11.06,41,3,3.33,RU,1727751112,2024-10-01 02:51:52
488,latnaya,51.6586,38.9011,10.94,36,0,4.76,RU,1727751113,2024-10-01 02:51:53
489,namibe,-15.1961,12.1522,16.52,90,40,1.66,AO,1727751114,2024-10-01 02:51:54
490,ko lanta,7.5336,99.0865,27.65,77,95,4.7,TH,1727751115,2024-10-01 02:51:55
491,cabo san lucas,22.8909,-109.9124,28.2,87,88,0.89,MX,1727751116,2024-10-01 02:51:56
492,skikda,36.8762,6.9092,20.67,68,0,1.25,DZ,1727751117,2024-10-01 02:51:57
493,chegdomyn,51.1167,133.0167,7.98,43,3,2.32,RU,1727750991,2024-10-01 02:49:51
494,la'ie,21.6477,-157.9253,28.66,74,18,2.68,US,1727751119,2024-10-01 02:51:59
495,laojunmiao,39.8333,97.7333,8.66,18,0,2.31,CN,1727751120,2024-10-01 02:52:00
496,turan,16.0678,108.2208,31.99,66,20,1.03,VN,1727751121,2024-10-01 02:52:01
497,puerto lempira,15.2667,-83.7667,25.31,90,94,2.82,HN,1727751122,2024-10-01 02:52:02
498,alofi,-19.0595,-169.9187,24.94,61,40,8.23,NU,1727751123,2024-10-01 02:52:03
499,benghazi,32.1167,20.0667,23.74,57,0,6.4,LY,1727751124,2024-10-01 02:52:04
500,kirakira,-10.4544,161.9205,28.22,77,45,3.41,SB,1727751125,2024-10-01 02:52:05
501,bella vista,36.4295,-94.2316,23.34,74,20,0.0,US,1727751126,2024-10-01 02:52:06
502,egilsstadir,65.2653,-14.3948,2.95,87,0,3.6,IS,1727751127,2024-10-01 02:52:07
503,macapa,0.0389,-51.0664,28.99,79,40,4.12,BR,1727751067,2024-10-01 02:51:07
504,noumea,-22.2763,166.4572,24.15,74,0,7.01,NC,1727751129,2024-10-01 02:52:09
505,macusani,-14.0833,-70.4333,3.83,76,65,1.34,PE,1727751130,2024-10-01 02:52:10
506,nove mesto na morave,49.5614,16.0742,6.88,77,64,1.79,CZ,1727751131,2024-10-01 02:52:11
507,jijiga,9.35,42.8,18.07,82,52,2.64,ET,1727751132,2024-10-01 02:52:12
508,bovalino,38.149,16.174,15.72,78,0,3.99,IT,1727751133,2024-10-01 02:52:13
509,paso de carrasco,-34.8603,-56.0522,17.08,100,100,4.63,UY,1727751134,2024-10-01 02:52:14
510,andergrove,-21.0833,149.1833,24.7,69,0,5.73,AU,1727751135,2024-10-01 02:52:15
511,mount airy,36.4993,-80.6073,20.29,85,75,0.0,US,1727750797,2024-10-01 02:46:37
512,conduaga,8.862,117.4893,30.23,69,100,2.17,PH,1727751137,2024-10-01 02:52:17
513,totskoye,52.5248,52.7623,11.18,45,15,2.37,RU,1727751138,2024-10-01 02:52:18
514,vallegrande,-18.4897,-64.1069,14.98,80,18,2.14,BO,1727750926,2024-10-01 02:48:46
515,iwaki,37.05,140.8833,21.01,95,100,2.27,JP,1727751143,2024-10-01 02:52:23
516,ciudad madero,22.2667,-97.8333,28.92,73,10,2.7,MX,1727751144,2024-10-01 02:52:24
517,esperanza,19.5847,-70.9849,26.28,87,45,0.89,DO,1727751145,2024-10-01 02:52:25
518,les cayes,18.2,-73.75,26.42,82,0,1.48,HT,1727751146,2024-10-01 02:52:26
519,pudozh,61.8099,36.5345,1.81,87,1,0.93,RU,1727751147,2024-10-01 02:52:27
520,thetford-mines,46.0937,-71.3054,9.69,90,1,2.43,CA,1727751148,2024-10-01 02:52:28
521,vega de alatorre,20.0333,-96.6333,25.34,81,32,3.24,MX,1727751149,2024-10-01 02:52:29
522,ghatanji,20.1333,78.3167,27.43,80,68,2.07,IN,1727751150,2024-10-01 02:52:30
523,vallenar,-28.5708,-70.7581,13.83,71,8,0.34,CL,1727751151,2024-10-01 02:52:31
524,petauke,-14.2426,31.3253,20.59,37,0,2.35,ZM,1727751152,2024-10-01 02:52:32
525,borazjan,29.2666,51.2159,28.58,37,2,0.78,IR,1727751153,2024-10-01 02:52:33
526,la ronge,55.1001,-105.2842,6.14,70,40,3.09,CA,1727751154,2024-10-01 02:52:34
527,al bawiti,28.3492,28.8659,20.62,65,0,3.63,EG,1727751155,2024-10-01 02:52:35
528,gadzhiyevo,69.2551,33.3362,2.3,80,85,7.39,RU,1727751156,2024-10-01 02:52:36
529,tondano,1.3038,124.9112,26.05,74,100,1.18,ID,1727750889,2024-10-01 02:48:09
530,cockburn town,21.4612,-71.1419,29.29,72,18,6.09,TC,1727751158,2024-10-01 02:52:38
531,berezovyy,51.6667,135.7,7.18,76,68,2.11,RU,1727751159,2024-10-01 02:52:39
532,ambanja,-13.6833,48.45,22.48,86,30,1.25,MG,1727751160,2024-10-01 02:52:40
533,gladewater,32.5365,-94.9427,22.96,78,0,0.0,US,1727751161,2024-10-01 02:52:41
534,la rinconada,37.4873,-5.9826,19.47,81,0,2.57,ES,1727751162,2024-10-01 02:52:42
535,shihezi,44.3,86.0333,12.8,20,0,0.99,CN,1727751163,2024-10-01 02:52:43
536,vilyuchinsk,52.9306,158.4028,11.15,80,100,1.47,RU,1727751164,2024-10-01 02:52:44
537,kuznetsk,53.1167,46.6004,10.34,41,0,2.44,RU,1727751165,2024-10-01 02:52:45
538,mingelchaur,40.764,47.0595,14.65,71,1,0.3,AZ,1727751166,2024-10-01 02:52:46
539,kargil,34.5667,76.1,8.04,34,0,1.09,IN,1727751167,2024-10-01 02:52:47
540,genhe,50.7833,121.5167,6.57,42,38,2.85,CN,1727751168,2024-10-01 02:52:48
541,manistee,44.2445,-86.3242,16.64,98,0,3.19,US,1727751169,2024-10-01 02:52:49
542,cholpon-ata,42.6494,77.0823,13.02,55,100,1.38,KG,1727751171,2024-10-01 02:52:51
543,renukut,24.2,83.0333,27.01,83,13,3.67,IN,1727751172,2024-10-01 02:52:52
544,bangassou,4.7413,22.8184,20.28,99,100,0.34,CF,1727751173,2024-10-01 02:52:53
545,giado,31.9582,12.0203,19.51,53,0,1.1,LY,1727751174,2024-10-01 02:52:54
546,opuwo,-18.0607,13.84,15.59,28,0,1.12,NA,1727751175,2024-10-01 02:52:55
547,volokonovka,50.4827,37.8563,12.67,43,0,5.59,RU,1727751176,2024-10-01 02:52:56
548,madrid,40.4165,-3.7026,16.17,55,0,1.03,ES,1727750916,2024-10-01 02:48:36
549,miches,18.9836,-69.0476,26.87,85,8,2.78,DO,1727751178,2024-10-01 02:52:58
550,alta,69.9689,23.2717,5.59,75,20,25.93,NO,1727751179,2024-10-01 02:52:59
551,acapulco de juarez,16.8634,-99.8901,27.9,86,100,3.09,MX,1727751180,2024-10-01 02:53:00
552,porto novo,6.4965,2.6036,26.9,89,98,2.02,BJ,1727751181,2024-10-01 02:53:01
553,sumbawa besar,-8.5,117.4333,35.71,39,100,4.18,ID,1727751182,2024-10-01 02:53:02
554,severobaykal'sk,55.65,109.3167,5.56,70,99,3.4,RU,1727751184,2024-10-01 02:53:04
555,qamdo,31.1667,97.2333,13.9,36,3,1.76,CN,1727751185,2024-10-01 02:53:05
556,cusseta,32.3054,-84.7727,24.81,93,91,1.71,US,1727751186,2024-10-01 02:53:06
557,aldinga beach,-35.2793,138.4604,17.58,76,32,2.68,AU,1727751187,2024-10-01 02:53:07
558,naliya,23.2667,68.8333,28.2,74,0,5.16,IN,1727751189,2024-10-01 02:53:09
559,kalianget,-7.05,113.9333,30.69,62,68,5.1,ID,1727751190,2024-10-01 02:53:10
560,puerto aysen,-45.4,-72.7,-1.27,99,93,1.79,CL,1727751191,2024-10-01 02:53:11
561,motueka,-41.1333,173.0167,15.62,63,88,2.87,NZ,1727751192,2024-10-01 02:53:12
562,scarborough,54.2797,-0.4044,12.59,93,100,2.68,GB,1727750452,2024-10-01 02:40:52
563,lod,31.9514,34.8953,24.25,75,40,3.6,IL,1727751194,2024-10-01 02:53:14
564,panama city beach,30.1766,-85.8055,26.11,89,0,0.0,US,1727751196,2024-10-01 02:53:16
565,corfu,39.62,19.9197,15.88,72,0,0.0,GR,1727751197,2024-10-01 02:53:17
566,fisterra,42.9049,-9.2629,17.73,98,100,7.74,ES,1727751198,2024-10-01 02:53:18
567,fortaleza,-3.7227,-38.5247,26.79,73,20,8.75,BR,1727750530,2024-10-01 02:42:10
568,tralee,52.2704,-9.7026,10.77,93,74,1.66,IE,1727751200,2024-10-01 02:53:20
569,kayangel,8.0823,134.7173,28.33,78,100,9.94,PW,1727751201,2024-10-01 02:53:21
570,bikenibeu village,1.3673,173.1241,30.98,70,75,2.06,KI,1727751202,2024-10-01 02:53:22
571,mulayjah,27.271,48.4242,27.2,64,0,4.31,SA,1727751203,2024-10-01 02:53:23
572,charters towers,-20.1,146.2667,32.88,26,0,5.24,AU,1727751204,2024-10-01 02:53:24
573,salalah,17.0151,54.0924,26.05,83,75,3.09,OM,1727751205,2024-10-01 02:53:25
574,tilcara,-23.5776,-65.3509,12.21,6,3,5.1,AR,1727751206,2024-10-01 02:53:26
575,kotabumi,-4.8333,104.9,31.9,51,1,3.19,ID,1727751207,2024-10-01 02:53:27
576,khandyga,62.6667,135.6,1.34,97,100,2.74,RU,1727751208,2024-10-01 02:53:28
577,shimoda,34.6667,138.95,22.44,88,95,6.42,JP,1727751209,2024-10-01 02:53:29
578,mikkeli,61.6886,27.2723,-3.94,100,0,0.51,FI,1727751210,2024-10-01 02:53:30
579,kollam,8.8833,76.6,27.13,82,70,1.76,IN,1727751211,2024-10-01 02:53:31
580,rothenburg ob der tauber,49.3833,10.1833,12.56,85,75,3.6,DE,1727751212,2024-10-01 02:53:32
581,tulagi,-9.0996,160.1476,28.0,75,84,4.11,SB,1727751213,2024-10-01 02:53:33
582,kolondieba,11.0882,-6.8926,23.16,91,15,0.66,ML,1727751214,2024-10-01 02:53:34
583,sungai penuh,-2.0833,101.3833,25.8,64,49,1.3,ID,1727751215,2024-10-01 02:53:35
584,rondonopolis,-16.4708,-54.6356,31.13,29,100,1.52,BR,1727751217,2024-10-01 02:53:37
585,puerto baquerizo moreno,-0.9,-89.6,20.09,87,96,5.02,EC,1727751218,2024-10-01 02:53:38
586,mil'kovo,55.6078,37.7956,8.52,66,60,6.43,RU,1727751219,2024-10-01 02:53:39
587,arkhipo-osipovka,44.37,38.52,19.1,69,66,1.26,RU,1727751220,2024-10-01 02:53:40
